<?xml version="1.0" encoding="UTF-8"?>
<data id="1" data_id="92">
  <location>
    <id>1</id>
    <name>Hausmanns gate</name>
    <lat>59.914287</lat>
    <lng>10.757001</lng>
    <type>1</type>
    <address>test</address>
    <time>2</time>
    <aapning>06:00 - 24:00</aapning>
  </location>
  <location>
    <id>2</id>
    <name>Legevakten</name>
    <lat>60.000000</lat>
    <lng>11.000000</lng>
    <type>1</type>
    <address>test</address>
    <time>3</time>
    <aapning>06:00 - 24:00</aapning>
  </location>
  <location>
    <id>3</id>
    <name>Nylandsveien</name>
    <lat>60.000000</lat>
    <lng>11.000000</lng>
    <type>1</type>
    <address>test</address>
    <time>5</time>
    <aapning>06:00 - 24:00</aapning>
  </location>
  <location>
    <id>4</id>
    <name>Jakob Kirke</name>
    <lat>60.000000</lat>
    <lng>11.000000</lng>
    <type>1</type>
    <address>test</address>
    <time>7</time>
    <aapning>06:00 - 24:00</aapning>
  </location>
  <location>
    <id>5</id>
    <name>Schous plass</name>
    <lat>60.000000</lat>
    <lng>11.000000</lng>
    <type>1</type>
    <address>test</address>
    <time>7</time>
    <aapning>06:00 - 24:00</aapning>
  </location>
  <location>
    <id>6</id>
    <name>Vaterlandsparken</name>
    <lat>60.000000</lat>
    <lng>11.000000</lng>
    <type>1</type>
    <address>test</address>
    <time>7</time>
    <aapning>06:00 - 24:00</aapning>
  </location>
  <location>
    <id>19</id>
    <name>Hausmanns gate</name>
    <lat>59.916405</lat>
    <lng>10.757647</lng>
    <type>2</type>
    <address/>
    <time>3</time>
    <aapning/>
  </location>
  <location>
    <id>20</id>
    <name>Heimdalsgata</name>
    <lat>59.918441</lat>
    <lng>10.761438</lng>
    <type>2</type>
    <address/>
    <time>5</time>
    <aapning/>
  </location>
  <location>
    <id>21</id>
    <name>Grønland [T-bane]</name>
    <lat>59.912801</lat>
    <lng>10.760186</lng>
    <type>2</type>
    <address/>
    <time>6</time>
    <aapning/>
  </location>
  <location>
    <id>22</id>
    <name>Vahls gate</name>
    <lat>59.916643</lat>
    <lng>10.765231</lng>
    <type>2</type>
    <address/>
    <time>7</time>
    <aapning/>
  </location>
  <location>
    <id>23</id>
    <name>Jakob kirke</name>
    <lat>59.918165</lat>
    <lng>10.753644</lng>
    <type>2</type>
    <address/>
    <time>7</time>
    <aapning/>
  </location>
  <location>
    <id>24</id>
    <name>Hammersborggata</name>
    <lat>59.914595</lat>
    <lng>10.752373</lng>
    <type>2</type>
    <address/>
    <time>8</time>
    <aapning/>
  </location>
  <location>
    <id>37</id>
    <name>Rema 1000</name>
    <lat>59.914287</lat>
    <lng>10.757001</lng>
    <type>3</type>
    <address>Chr. Kroghs Gate 1-11, 0186 Oslo</address>
    <time>3</time>
    <aapning>06:00 - 24:00</aapning>
  </location>
  <location>
    <id>38</id>
    <name>Coop Prix</name>
    <lat>59.916524</lat>
    <lng>10.755877</lng>
    <type>3</type>
    <address>Hausmanns Gate 19, 0182 Oslo</address>
    <time>4</time>
    <aapning/>
  </location>
  <location>
    <id>39</id>
    <name>Extra</name>
    <lat>59.018322</lat>
    <lng>10.761252</lng>
    <type>3</type>
    <address>Trondheimsveien 5, 0560</address>
    <time>5</time>
    <aapning/>
  </location>
  <location>
    <id>40</id>
    <name>Kiwi</name>
    <lat>59.914281</lat>
    <lng>10.753185</lng>
    <type>3</type>
    <address>Storgata 32, 0184 Oslo</address>
    <time>7</time>
    <aapning/>
  </location>
  <location>
    <id>41</id>
    <name>Kiwi</name>
    <lat>59.913017</lat>
    <lng>10.761312</lng>
    <type>3</type>
    <address>Grønland 18, 0188 Oslo</address>
    <time>7</time>
    <aapning/>
  </location>
  <location>
    <id>42</id>
    <name>Rema 1000</name>
    <lat>59.917967</lat>
    <lng>10.763736</lng>
    <type>3</type>
    <address>Herslebs Gate 17, 0561 Oslo</address>
    <time>8</time>
    <aapning/>
  </location>
  <location>
    <id>55</id>
    <name>Tehran Kebab House</name>
    <lat>59.916156</lat>
    <lng>10.757805</lng>
    <type>4</type>
    <address>Storgata 38, 0182 Oslo</address>
    <time>3</time>
    <aapning/>
  </location>
  <location>
    <id>56</id>
    <name>Wilberg</name>
    <lat>59.916539</lat>
    <lng>10.755717</lng>
    <type>4</type>
    <address>Filipstad brygge, 0182 Oslo</address>
    <time>4</time>
    <aapning/>
  </location>
  <location>
    <id>57</id>
    <name>Trattoria Popolare</name>
    <lat>59.918232</lat>
    <lng>10.760001</lng>
    <type>4</type>
    <address>Trondheimsveien 2, 0182 Oslo</address>
    <time>5</time>
    <aapning/>
  </location>
  <location>
    <id>58</id>
    <name>Südøst Asian Crossover</name>
    <lat>59.918181</lat>
    <lng>10.760572</lng>
    <type>4</type>
    <address>Trondheimsveien 5, 0182 Oslo</address>
    <time>5</time>
    <aapning/>
  </location>
  <location>
    <id>59</id>
    <name>Delicatessen Grünerløkka</name>
    <lat>59.918701</lat>
    <lng>10.758267</lng>
    <type>4</type>
    <address>Søndre gate 8, 0550 Oslo</address>
    <time>5</time>
    <aapning/>
  </location>
  <location>
    <id>60</id>
    <name>Trancher Entrecôte</name>
    <lat>59.918942</lat>
    <lng>10.759502</lng>
    <type>4</type>
    <address>Thorvald Meyers gate 78, 0550 Oslo</address>
    <time>5</time>
    <aapning/>
  </location>
  <location>
    <id>73</id>
    <name>Sjenkestua Studentbar</name>
    <lat>59.916053</lat>
    <lng>10.760126</lng>
    <type>5</type>
    <address>Chr. Kroghs Gate 32, 0186 Oslo</address>
    <time>1</time>
    <aapning/>
  </location>
  <location>
    <id>74</id>
    <name>Skuret bar og scene</name>
    <lat>59.914973</lat>
    <lng>10.758224</lng>
    <type>5</type>
    <address>Chr. Kroghs Gate 2, 0186 Oslo</address>
    <time>3</time>
    <aapning/>
  </location>
  <location>
    <id>75</id>
    <name>Cafe Con Bar</name>
    <lat>59.913836</lat>
    <lng>10.756544</lng>
    <type>5</type>
    <address>Brugata 11, 0186 Oslo</address>
    <time>4</time>
    <aapning/>
  </location>
  <location>
    <id>76</id>
    <name>Dattera til hagen</name>
    <lat>59.913254</lat>
    <lng>10.760122</lng>
    <type>5</type>
    <address>Grønland 10, 0188 Oslo</address>
    <time>6</time>
    <aapning/>
  </location>
  <location>
    <id>77</id>
    <name>Verkstedet bar</name>
    <lat>59.917716</lat>
    <lng>10.754042</lng>
    <type>5</type>
    <address>Hausmanns gate 29, 0182 Oslo</address>
    <time>6</time>
    <aapning/>
  </location>
  <location>
    <id>78</id>
    <name>Schouskjeller Mikrobyggeri</name>
    <lat>59.918411</lat>
    <lng>10.760267</lng>
    <type>5</type>
    <address>Trondheimsveien 2, 0560 Oslo</address>
    <time>8</time>
    <aapning/>
  </location>
  <location>
    <id>91</id>
    <name>Volleyballbane</name>
    <lat>59.915534</lat>
    <lng>10.760954</lng>
    <type>6</type>
    <address>Nylandsveien, 0186 Oslo</address>
    <time>3</time>
    <aapning/>
  </location>
  <location>
    <id>92</id>
    <name>Haralds Gym</name>
    <lat>59.915788</lat>
    <lng>10.758701</lng>
    <type>6</type>
    <address>Hausmanns gate 6, 0186 Oslo</address>
    <time>3</time>
    <aapning>mandag - fredag
09:00-21:00
lørdag - søndag
12:00-18:00</aapning>
  </location>
  <location>
    <id>93</id>
    <name>Anker Gymsal</name>
    <lat>59.917499</lat>
    <lng>10.756832</lng>
    <type>6</type>
    <address>Storgata 91, 0182 Oslo</address>
    <time>3</time>
    <aapning/>
  </location>
  <location>
    <id>94</id>
    <name>Farah Kaah Internet Cafè</name>
    <lat>59.915914</lat>
    <lng>10.756482</lng>
    <type>6</type>
    <address>Storgata 51, 0182 Oslo</address>
    <time>3</time>
    <aapning/>
  </location>
  <location>
    <id>95</id>
    <name>Jødisk museum</name>
    <lat>59.916390</lat>
    <lng>10.755296</lng>
    <type>6</type>
    <address>Calmeyers gate 15b, 0183 Oslo</address>
    <time>5</time>
    <aapning/>
  </location>
  <location>
    <id>96</id>
    <name>Botanisk hage</name>
    <lat>59.918409</lat>
    <lng>10.770372</lng>
    <type>6</type>
    <address>Monrads Gate, 0562</address>
    <time>9</time>
    <aapning/>
  </location>
</data>
