<?xml version="1.0" encoding="UTF-8"?>
<data id="2" data_id="11">
  <location>
    <id>7</id>
    <name>Vulkan</name>
    <lat>59.922483</lat>
    <lng>10.751129</lng>
    <type>1</type>
    <address>Maridalsveien 15, 0175 Oslo</address>
    <time>2</time>
    <aapning>06:00 - 24:00</aapning>
  </location>
  <location>
    <id>8</id>
    <name>AHO</name>
    <lat>59.925276</lat>
    <lng>10.750405</lng>
    <type>1</type>
    <address>Maridalsveien 27, 0175 Oslo</address>
    <time>3</time>
    <aapning>06:00 - 24:00</aapning>
  </location>
  <location>
    <id>9</id>
    <name>Fredensborg</name>
    <lat>59.920944</lat>
    <lng>10.750362</lng>
    <type>1</type>
    <address>Fredensborgveien 64, 0177 Oslo</address>
    <time>4</time>
    <aapning>06:00 - 24:00</aapning>
  </location>
  <location>
    <id>10</id>
    <name>Bjerregaards gate</name>
    <lat>59.925502</lat>
    <lng>10.746069</lng>
    <type>1</type>
    <address>Bjerregaards Gate 32, 0172 Oslo</address>
    <time>6</time>
    <aapning>06:00 - 24:00</aapning>
  </location>
  <location>
    <id>11</id>
    <name>Olaf Ryes plass</name>
    <lat>59.922414</lat>
    <lng>10.758127</lng>
    <type>1</type>
    <address>Olaf Ryes Plass, 0552 Oslo</address>
    <time>7</time>
    <aapning>06:00 - 24:00</aapning>
  </location>
  <location>
    <id>12</id>
    <name>Kiellands Plass</name>
    <lat>59.928050</lat>
    <lng>10.751203</lng>
    <type>1</type>
    <address>Waldemar Thranes Gate 71, 0175 Oslo</address>
    <time>8</time>
    <aapning>06:00 - 24:00</aapning>
  </location>
  <location>
    <id>25</id>
    <name>Birkelunden</name>
    <lat>59.926937</lat>
    <lng>10.761036</lng>
    <type>2</type>
    <address>Schleppegrells gate 12, 0556 Oslo</address>
    <time>1</time>
    <aapning>Sjekk Rutetabell</aapning>
  </location>
  <location>
    <id>26</id>
    <name>Telthusbakken</name>
    <lat>59.924478</lat>
    <lng>10.750551</lng>
    <type>2</type>
    <address>Telthusbakken, 0175 Oslo</address>
    <time>3</time>
    <aapning>Sjekk Rutetabell</aapning>
  </location>
  <location>
    <id>27</id>
    <name>Møllerveien</name>
    <lat>59.920588</lat>
    <lng>10.751391</lng>
    <type>2</type>
    <address>Møllerveien, 0178 Oslo</address>
    <time>4</time>
    <aapning>Sjekk Rutetabell</aapning>
  </location>
  <location>
    <id>28</id>
    <name>Kiellands plass</name>
    <lat>59.928332</lat>
    <lng>10.749310</lng>
    <type>2</type>
    <address>Waldemar Thranes gate 70, 0173 Oslo</address>
    <time>5</time>
    <aapning>Sjekk Rutetabell</aapning>
  </location>
  <location>
    <id>29</id>
    <name>Schous plass</name>
    <lat>59.920797</lat>
    <lng>10.759327</lng>
    <type>2</type>
    <address>Thorvald Meyers gate 66, 0552 Oslo</address>
    <time>6</time>
    <aapning>Sjekk Rutetabell</aapning>
  </location>
  <location>
    <id>30</id>
    <name>Stensberggata</name>
    <lat>59.922324</lat>
    <lng>10.742162</lng>
    <type>2</type>
    <address>Ullevålsveien 10, 0171 Oslo</address>
    <time>10</time>
    <aapning>Sjekk Rutetabell</aapning>
  </location>
  <location>
    <id>43</id>
    <name>Rema 1000</name>
    <lat>59.923303</lat>
    <lng>10.751537</lng>
    <type>3</type>
    <address>Maridalsveien 15, 0178 Oslo</address>
    <time>2</time>
    <aapning>Man - Fre
07:00-23:00
&lt;/br&gt;
Lør
08:00-21:00
&lt;/br&gt;
Søn
Stengt</aapning>
  </location>
  <location>
    <id>44</id>
    <name>Kiwi </name>
    <lat>59.921623</lat>
    <lng>10.757222</lng>
    <type>3</type>
    <address>Markveien 35b, 0554 Oslo</address>
    <time>7</time>
    <aapning>Man - Lør
07:00-23:00
&lt;/br&gt;
Søn
Stengt</aapning>
  </location>
  <location>
    <id>45</id>
    <name>Rema 1000</name>
    <lat>59.927668</lat>
    <lng>10.752105</lng>
    <type>3</type>
    <address>Darres Gate 2, 0175 Oslo</address>
    <time>8</time>
    <aapning>Man - Fre
07:00-23:00
&lt;/br&gt;
Lør
08:00-21:00
&lt;/br&gt;
Søn
Stengt</aapning>
  </location>
  <location>
    <id>46</id>
    <name>Rema 1000</name>
    <lat>59.919226</lat>
    <lng>10.747038</lng>
    <type>3</type>
    <address>Fredenborgsveien 24, 0177 Oslo</address>
    <time>9</time>
    <aapning>Man - Fre
07:00-23:00
&lt;/br&gt;
Lør
08:00-21:00
&lt;/br&gt;
Søn
Stengt</aapning>
  </location>
  <location>
    <id>47</id>
    <name>Rema 1000</name>
    <lat>59.925721</lat>
    <lng>10.746049</lng>
    <type>3</type>
    <address>Waldemar Thranes Gate 25, 0171 Oslo</address>
    <time>10</time>
    <aapning>Man - Fre
07:00-23:00
&lt;/br&gt;
Lør
08:00-21:00
&lt;/br&gt;
Søn
Stengt</aapning>
  </location>
  <location>
    <id>48</id>
    <name>Rema 1000</name>
    <lat>59.927308</lat>
    <lng>10.758928</lng>
    <type>3</type>
    <address>Thorvald Meyers Gate 23, 0555 Oslo</address>
    <time>11</time>
    <aapning>Man - Fre
07:00-23:00
&lt;/br&gt;
Lør
08:00-21:00
&lt;/br&gt;
Søn
Stengt</aapning>
  </location>
  <location>
    <id>61</id>
    <name>Lucky Bird</name>
    <lat>59.922603</lat>
    <lng>10.752000</lng>
    <type>4</type>
    <address>Vulkan 7, 0175 Oslo</address>
    <time>1</time>
    <aapning>Man - Tors
15:00-23:00
&lt;/br&gt;
Fre - Lør
12:00-00:00
&lt;/br&gt;
Søn
12:00-23:00</aapning>
  </location>
  <location>
    <id>62</id>
    <name>La Crêpe</name>
    <lat>59.922568</lat>
    <lng>10.751655</lng>
    <type>4</type>
    <address>Vulkan 28, 0178 Oslo</address>
    <time>1</time>
    <aapning>Tirs - Søn
12:00-21:00</aapning>
  </location>
  <location>
    <id>63</id>
    <name>Mathallen Oslo</name>
    <lat>59.922222</lat>
    <lng>10.751999</lng>
    <type>4</type>
    <address>Vulkan 5, 0178 Oslo</address>
    <time>1</time>
    <aapning>Tirs - Ons
10:00-19:00
&lt;/br&gt;
Tors - Fre
10:00-20:00
&lt;/br&gt;
Lør
10:00-19:00
&lt;/br&gt;
Søn
11:00-18:00</aapning>
  </location>
  <location>
    <id>64</id>
    <name>Døgnvill Burger</name>
    <lat>59.921711</lat>
    <lng>10.751670</lng>
    <type>4</type>
    <address>Vulkan 12, 0178 Oslo</address>
    <time>4</time>
    <aapning>Man - Ons
12:00-23:00
&lt;/br&gt;
Tors- Lør
12:00-00:00
&lt;/br&gt;
Søn
12:00-23:00</aapning>
  </location>
  <location>
    <id>65</id>
    <name>Foccaceria</name>
    <lat>59.923700</lat>
    <lng>10.757363</lng>
    <type>4</type>
    <address>Markveien 34, 0554 Oslo</address>
    <time>6</time>
    <aapning>Tirs - Søn
12:00-21:00
</aapning>
  </location>
  <location>
    <id>66</id>
    <name>Noodlepie AS</name>
    <lat>59.923353</lat>
    <lng>10.757034</lng>
    <type>4</type>
    <address>Grüners gate 9, 0552 Oslo</address>
    <time>6</time>
    <aapning>Man - Søn
12:00-23:00</aapning>
  </location>
  <location>
    <id>79</id>
    <name>Bar Vulkan</name>
    <lat>59.922838</lat>
    <lng>10.752404</lng>
    <type>5</type>
    <address>Vulkan 9, 0178 Oslo</address>
    <time>1</time>
    <aapning>Tirs - Tors
17:00-00:00
&lt;/br&gt;
Fre
16:00-03:00
&lt;/br&gt;
Lør
16:00-00:00</aapning>
  </location>
  <location>
    <id>80</id>
    <name>Vulkan Pub</name>
    <lat>59.922476</lat>
    <lng>10.751246</lng>
    <type>5</type>
    <address>Vulkan 26, 0178 Oslo</address>
    <time>1</time>
    <aapning>Tirs - Fre
18:00-00:00
&lt;/br&gt;
Lør
18:00-02:00</aapning>
  </location>
  <location>
    <id>81</id>
    <name>Fyrhuset kuba</name>
    <lat>59.923592</lat>
    <lng>10.751851</lng>
    <type>5</type>
    <address>Maridalsveien 19, 0175 Oslo</address>
    <time>1</time>
    <aapning>Man - Tirs
15:00-00:00
&lt;/br&gt;
Ons-Lør
15:00-01:00
</aapning>
  </location>
  <location>
    <id>82</id>
    <name>Hendrix Ibsen</name>
    <lat>59.921941</lat>
    <lng>10.751436</lng>
    <type>5</type>
    <address>Vulkan 16, 0178 Oslo</address>
    <time>2</time>
    <aapning>Man - Tors
08:00-23:00
&lt;/br&gt;
Fre
08:00-03:30
&lt;/br&gt;
Lør
09:00-03:00
&lt;/br&gt;
Søn
10:00-23:00</aapning>
  </location>
  <location>
    <id>83</id>
    <name>Søvnløs Bar</name>
    <lat>59.921741</lat>
    <lng>10.751641</lng>
    <type>5</type>
    <address>Vulkan 12, 0178 Oslo</address>
    <time>2</time>
    <aapning>Ons - Tors
18:00-00:00
&lt;/br&gt;
Fre
17:00-01:00
&lt;/br&gt;
Lør
14:00-01:00
&lt;/br&gt;
Søn
14:00-22:00</aapning>
  </location>
  <location>
    <id>84</id>
    <name>Parkteateret bar</name>
    <lat>59.923466</lat>
    <lng>10.758322</lng>
    <type>5</type>
    <address>Olaf Ryes Plass 11, 0552 Oslo</address>
    <time>7</time>
    <aapning>Ons - Tors
11:00-02:00
&lt;/br&gt;
Fre - Lør
11:00-03:00
&lt;/br&gt;
Søn - Tirs
11:00-01:00</aapning>
  </location>
  <location>
    <id>97</id>
    <name>SiO Athletica</name>
    <lat>59.923150</lat>
    <lng>10.752198</lng>
    <type>6</type>
    <address>Vulkan 15, 0178 Oslo</address>
    <time>1</time>
    <aapning>Man - Tors
06:00-22:00
&lt;/br&gt;
Fre
06:00-20:00
&lt;/br&gt;
Lør
09:00-18:00
&lt;/br&gt;
Søn
10:00-19:00</aapning>
  </location>
  <location>
    <id>98</id>
    <name>Galleri Vulkan</name>
    <lat>59.922396</lat>
    <lng>10.751264</lng>
    <type>6</type>
    <address>Maridalsveien 13, 0175 Oslo</address>
    <time>3</time>
    <aapning>Ons - Fre
12:00-19:00
&lt;/br&gt;
Lør - Søn
12:00-17:00</aapning>
  </location>
  <location>
    <id>99</id>
    <name>Dansens Hus</name>
    <lat>59.921540</lat>
    <lng>10.752268</lng>
    <type>6</type>
    <address>Vulkan 1, 0182 Oslo</address>
    <time>3</time>
    <aapning>Arrangement basert</aapning>
  </location>
  <location>
    <id>100</id>
    <name>Ytteborgs ølhall</name>
    <lat>59.924461</lat>
    <lng>10.747488</lng>
    <type>6</type>
    <address>Akersbakken 28, 0174 Oslo</address>
    <time>8</time>
    <aapning>Døgnåpent</aapning>
  </location>
  <location>
    <id>101</id>
    <name>Sofienbergparken</name>
    <lat>59.923103</lat>
    <lng>10.763558</lng>
    <type>6</type>
    <address>Sofienberggata 14, 0558 Oslo</address>
    <time>11</time>
    <aapning>Døgnåpent</aapning>
  </location>
  <location>
    <id>102</id>
    <name>Oslo Reptilpark</name>
    <lat>59.918158</lat>
    <lng>10.743261</lng>
    <type>6</type>
    <address>St. Olavs Gate 2, 0165 Oslo</address>
    <time>13</time>
    <aapning>Man - Søn
10:00-18:00</aapning>
  </location>
</data>
